[{"lat": 35.5971751, "lon": -105.2216475, "name": "New Mexico Highlands University"}, {"lat": 35.6870811, "lon": -108.1473593, "name": "Navajo Technical University"}, {"lat": 35.1704383, "lon": -103.7359897, "name": "Mesalands Community College"}, {"lat": 34.7288478, "lon": -106.704972, "name": "University of New Mexico - Valencia Branch"}, {"lat": 35.1664583, "lon": -107.842762, "name": "New Mexico State University Grants"}, {"lat": 35.19818, "lon": -106.65671, "name": "Cottonwood Mall"}, {"lat": 31.9848268, "lon": -106.6504922, "name": "Desert Pride Accademy"}, {"lat": 32.3088014, "lon": -106.742496, "name": "JCPenney"}, {"lat": 32.3159236, "lon": -106.7407362, "name": "Ross"}, {"lat": 32.312001, "lon": -106.7486808, "name": "Big Lots"}, {"lat": 33.3203893, "lon": -105.6280035, "name": "Bealls"}, {"lat": 33.3198334, "lon": -105.6282985, "name": "Burke's Outlet"}, {"lat": 32.3159865, "lon": -106.7403219, "name": "Marshalls"}, {"lat": 35.542144, "lon": -108.7590426, "name": "Plaza del Norte"}, {"lat": 35.1100683, "lon": -106.5166965, "name": "Big Lots"}, {"lat": 35.1300577, "lon": -106.5649318, "name": "TJ Maxx"}, {"lat": 33.4506186, "lon": -104.520742, "name": "JCPenney"}, {"lat": 33.4492521, "lon": -104.520817, "name": "Beall's"}, {"lat": 33.4251238, "lon": -104.521744, "name": null}, {"lat": 33.4244007, "lon": -104.5218092, "name": "Big Lots"}, {"lat": 32.4346919, "lon": -104.236314, "name": "Ross"}, {"lat": 32.3125483, "lon": -106.7442706, "name": "Sears"}, {"lat": 35.6418408, "lon": -106.0100299, "name": "TJ Maxx"}, {"lat": 35.6414691, "lon": -106.0100631, "name": "Ross"}, {"lat": 35.0972291, "lon": -106.564364, "name": "TJ Maxx"}, {"lat": 35.6930639, "lon": -105.9510138, "name": "Ross"}, {"lat": 35.0992999, "lon": -106.563316, "name": "Dillard's"}, {"lat": 35.0991047, "lon": -106.565341, "name": "Dillard's"}, {"lat": 32.71217, "lon": -103.137366, "name": "JCPenney"}, {"lat": 32.7119489, "lon": -103.1371442, "name": "Stage"}, {"lat": 34.4262085, "lon": -103.19361, "name": "JCPenney"}, {"lat": 35.2095811, "lon": -106.655083, "name": "Kohl's"}, {"lat": 35.6366892, "lon": -106.014677, "name": "Dillard's"}, {"lat": 35.6360433, "lon": -106.01224, "name": "JCPenney"}, {"lat": 35.6519244, "lon": -105.9950474, "name": "Big Lots"}, {"lat": 35.6601382, "lon": -105.978999, "name": "Burlington"}, {"lat": 36.3862973, "lon": -105.5849178, "name": null}, {"lat": 35.0240529, "lon": -106.7111022, "name": "Ross"}, {"lat": 32.7247152, "lon": -103.1263121, "name": "Big Lots"}, {"lat": 35.1757536, "lon": -106.5569076, "name": "Ross"}, {"lat": 35.6538936, "lon": -105.9743428, "name": "Bellevue University"}, {"lat": 35.596105, "lon": -105.2189413, "name": "Housing and Student Conduct"}, {"lat": 35.5965042, "lon": -105.2193258, "name": "Cowboy Caf\u00e9 Dining Hall"}, {"lat": 35.5347333, "lon": -108.7569136, "name": "Big Lots"}, {"lat": 35.1334457, "lon": -106.588454, "name": "Burlington"}, {"lat": 35.1319288, "lon": -106.5885283, "name": "Ross"}, {"lat": 35.1964799, "lon": -106.6562782, "name": "Dillard's"}, {"lat": 35.1981115, "lon": -106.657618, "name": "JCPenney"}, {"lat": 35.2528689, "lon": -106.651269, "name": "Target"}, {"lat": 35.0845104, "lon": -106.6852384, "name": "Burlington"}, {"lat": 35.3201028, "lon": -106.5773141, "name": "TJ Maxx"}, {"lat": 35.3208909, "lon": -106.5789368, "name": "Ross"}, {"lat": 35.1861544, "lon": -106.6644439, "name": "Target"}, {"lat": 35.18458, "lon": -106.6665091, "name": "Ross"}, {"lat": 35.106219, "lon": -106.5734707, "name": "JCPenney"}, {"lat": 35.1076127, "lon": -106.5742704, "name": "Macy's"}, {"lat": 36.7584363, "lon": -108.1607933, "name": "San Juan College 30th Street Education Center"}, {"lat": 35.0877258, "lon": -106.6873669, "name": "Brookline College"}, {"lat": 35.0858475, "lon": -106.6875398, "name": "Ross"}, {"lat": 35.1751721, "lon": -106.5699717, "name": "Khol's"}, {"lat": 35.0784472, "lon": -106.5301114, "name": "Ross"}, {"lat": 33.4482096, "lon": -104.5207661, "name": "Marshalls"}, {"lat": 35.1655101, "lon": -106.5900729, "name": "Veritas International University"}, {"lat": 35.2336927, "lon": -106.6552487, "name": "Kmart"}, {"lat": 35.2073172, "lon": -106.6553983, "name": "Ross"}, {"lat": 35.2044037, "lon": -106.6533094, "name": "Marshalls"}, {"lat": 35.61042405710443, "lon": -106.03215715581959, "name": "Fashion Outlets of Santa Fe"}, {"lat": 34.068458323867816, "lon": -106.9128893314642, "name": null}, {"lat": 32.27674117994311, "lon": -106.74610000266946, "name": "New Mexico State University"}, {"lat": 35.88569622443616, "lon": -106.31966726457726, "name": "University of New Mexico Los Alamos"}, {"lat": 34.178631755735545, "lon": -103.35371970009687, "name": "Eastern New Mexico University"}, {"lat": 35.60324546138112, "lon": -105.99298181876145, "name": "Santa Fe Community College"}, {"lat": 35.19808326699491, "lon": -106.65687583605005, "name": "Cottonwood Mall"}, {"lat": 32.31796158949996, "lon": -106.7442577763317, "name": "Target"}, {"lat": 32.31060985509536, "lon": -106.74349111514351, "name": "Mesilla Valley Mall"}, {"lat": 32.35413772872558, "lon": -106.73694112876763, "name": "Dona Ana Community College East Mesa Campus"}, {"lat": 32.02354293875046, "lon": -106.5840519500795, "name": "Do\u00f1a Ana Community College Gadsden"}, {"lat": 32.344779166856775, "lon": -106.76877748962343, "name": "Kohl's"}, {"lat": 36.77577483953935, "lon": -108.69928911320528, "name": null}, {"lat": 35.68727135, "lon": -108.15059545, "name": "United States Public Health Service Indian Hospital Library"}, {"lat": 35.68790919685315, "lon": -108.15021438238584, "name": "United States Public Health Service Indian Hospital Library"}, {"lat": 36.75205974507774, "lon": -108.16074306557135, "name": "TJ Maxx"}, {"lat": 35.05510688342357, "lon": -106.73828750898997, "name": null}, {"lat": 35.135183473389255, "lon": -106.52023429143952, "name": "Central New Mexico Community College Montoya Campus"}, {"lat": 35.090389298595916, "lon": -106.71141086270106, "name": "Botanero Guaymas"}, {"lat": 35.089618377619765, "lon": -106.71157599005251, "name": "Big Lots"}, {"lat": 35.09229600478495, "lon": -106.62137596093343, "name": "University Of New Mexico North Campus"}, {"lat": 35.07367315983524, "lon": -106.62763201354709, "name": "Central New Mexico Community College Main Campus"}, {"lat": 35.07367315983524, "lon": -106.62763201354709, "name": "Central New Mexico Community College Main Campus"}, {"lat": 35.0674208993771, "lon": -106.63112988461029, "name": "University Of New Mexico South Campus"}, {"lat": 35.0674208993771, "lon": -106.63112988461029, "name": "University Of New Mexico South Campus"}, {"lat": 35.20945896884978, "lon": -106.73241725105486, "name": "Central New Mexico Community College Westside Campus"}, {"lat": 35.10702661485313, "lon": -106.57253221807989, "name": "Coronado Mall"}, {"lat": 35.18327386956026, "lon": -106.59433209426481, "name": "Central New Mexico Community College Advanced Technology Center"}, {"lat": 35.1866770747656, "lon": -106.58286232677884, "name": "Central New Mexico Community College Workforce Training Center"}, {"lat": 34.99613984062077, "lon": -106.69231924966266, "name": "Central New Mexico Community College South Valley Campus"}, {"lat": 35.1297243028868, "lon": -106.54817607777933, "name": "Target"}, {"lat": 32.779184067516404, "lon": -108.27482671935405, "name": "Sears"}, {"lat": 32.78223964705764, "lon": -108.27292991695818, "name": "Pi\u00f1on Plaza"}, {"lat": 32.77691740818561, "lon": -108.28551727446441, "name": "Western New Mexico University"}, {"lat": 32.442369672607875, "lon": -104.26517855293646, "name": "New Mexico State University - Carlsbad"}, {"lat": 32.440636489279534, "lon": -104.25384016896962, "name": "Carlsbad Mall"}, {"lat": 32.392773416292414, "lon": -104.22095495563818, "name": null}, {"lat": 33.44952773794259, "lon": -104.52076891718292, "name": "Roswell Mall"}, {"lat": 33.42750242454471, "lon": -104.52131099838532, "name": "Target"}, {"lat": 35.17462182765211, "lon": -106.66585447570193, "name": "Southwestern Indian Polytechnical Institute"}, {"lat": 32.75759152182645, "lon": -103.18387984974977, "name": "New Mexico Junior College"}, {"lat": 36.7735857, "lon": -108.70327685, "name": "Dine College South Shiprock Campus"}, {"lat": 35.079022758747975, "lon": -106.60064189709833, "name": "Nob Hill Body and Soul Center"}, {"lat": 35.652379501493556, "lon": -105.99984516611649, "name": "Walmart"}, {"lat": 35.63604019431601, "lon": -106.0145746051629, "name": "Santa Fe Place"}, {"lat": 35.53135240339158, "lon": -108.76332805856644, "name": "Rio West Mall"}, {"lat": 35.10103002301131, "lon": -106.56781935619928, "name": "Target"}, {"lat": 32.83826705, "lon": -106.08318634999999, "name": "Holloman Base Exchange"}, {"lat": 32.91909512453772, "lon": -105.92681657486328, "name": "New Mexico State University Alamogordo"}, {"lat": 35.639724651019975, "lon": -106.01344237919658, "name": "Target"}, {"lat": 32.26805462329084, "lon": -107.74388423142948, "name": "Aaron's"}, {"lat": 35.692630757159606, "lon": -105.95067689596478, "name": "De Vargas Center"}, {"lat": 35.085839666786185, "lon": -106.52724512291559, "name": "Target"}, {"lat": 35.63081940781142, "lon": -106.02604160607113, "name": "Kohl's"}, {"lat": 35.6466464306789, "lon": -106.00695603719875, "name": null}, {"lat": 35.16947521713365, "lon": -103.73850420619311, "name": "Mesalands Community College: Wind Energy Technology"}, {"lat": 35.17215536910335, "lon": -106.58195027095057, "name": "Target"}, {"lat": 32.309896434292504, "lon": -106.81594325456763, "name": null}, {"lat": 32.31042229307225, "lon": -106.81615852929696, "name": null}, {"lat": 34.06825503223149, "lon": -106.91246643365075, "name": "New Mexico Tech"}, {"lat": 33.14881343034401, "lon": -107.24810837997386, "name": "Lakeway Shopping Center"}, {"lat": 35.08465308998944, "lon": -106.62060614165951, "name": "University of New Mexico"}, {"lat": 32.77435719261835, "lon": -103.18909631151888, "name": "College of the Southwest"}, {"lat": 32.42005594999999, "lon": -104.24063335, "name": "Eddy County Beauty College"}, {"lat": 36.76345268297565, "lon": -108.15024423949777, "name": "Animas Valley Mall"}, {"lat": 36.76342566048286, "lon": -108.15098016551137, "name": "Dillard's"}, {"lat": 36.762125392413004, "lon": -108.15222691501415, "name": "JCPenney"}, {"lat": 36.00355829755098, "lon": -106.08201790192213, "name": "Northern New Mexico College"}, {"lat": 35.58787978169763, "lon": -106.01077323882775, "name": "Institute of American Indian Arts"}, {"lat": 34.05674719566458, "lon": -106.91955614386866, "name": "New Mexico Fire Academy"}, {"lat": 36.80450984715855, "lon": -108.6948286259367, "name": "Din\u00e9 College - Shiprock Branch North Campus"}, {"lat": 34.402551345740456, "lon": -103.16551583501702, "name": "Clovis Community College"}, {"lat": 35.68549694893481, "lon": -105.9397405430422, "name": "Santa Fe Village"}, {"lat": 35.68681317498809, "lon": -105.93913701460022, "name": "Santa Fe Arcade"}, {"lat": 35.68398628931047, "lon": -105.94382901215705, "name": "Design Center Santa Fe"}, {"lat": 35.636178674266404, "lon": -106.053128382905, "name": "Southwestern College & New Earth Institute"}, {"lat": 34.42038844534237, "lon": -103.19524712104693, "name": "Big Lots"}, {"lat": 34.42509481705929, "lon": -103.19374178007868, "name": "North Plains Mall"}, {"lat": 35.24289861959043, "lon": -106.69478872142503, "name": "Southern Plaza"}, {"lat": 35.20953883782157, "lon": -106.65335466172236, "name": null}, {"lat": 34.659523247224286, "lon": -106.75936133031765, "name": "Bealls"}, {"lat": 36.7690918331443, "lon": -108.14778165628913, "name": "Target"}, {"lat": 36.76241645698619, "lon": -108.17720828107812, "name": null}, {"lat": 36.77242297045565, "lon": -108.17243548455181, "name": "San Juan College"}, {"lat": 35.30900864540758, "lon": -106.49317977270576, "name": "Homestead Village"}, {"lat": 35.683650457981024, "lon": -105.94870986019757, "name": null}, {"lat": 35.53092673547148, "lon": -108.66722619919811, "name": "Gallup Indian Plaza"}, {"lat": 36.82008507025267, "lon": -107.99972672538566, "name": "San Juan College - East Campus"}, {"lat": 36.82030393073115, "lon": -107.99633398654117, "name": "Poppin Tags Thrift Store"}, {"lat": 35.12661859692041, "lon": -106.6047086273715, "name": null}, {"lat": 36.38748695703801, "lon": -105.5862712834126, "name": "Walmart"}, {"lat": 35.53909331358367, "lon": -105.89180410688903, "name": null}, {"lat": 36.333060817157424, "lon": -106.19116633563908, "name": "Northern New Mexico Community College El Rito Campus"}, {"lat": 35.61555866446619, "lon": -105.25274772352256, "name": "Luna Community College"}, {"lat": 35.597678066882295, "lon": -105.2223146663597, "name": "New Mexico Highlands University"}, {"lat": 36.4099326839325, "lon": -105.5735322201279, "name": "UNM Taos Civic Plaza Campus"}, {"lat": 33.3114388241589, "lon": -104.52615461653714, "name": "Eastern New Mexico University - Roswell"}, {"lat": 36.348142364343225, "lon": -105.6520985961837, "name": "UNM Taos Klauer Campus"}, {"lat": 33.41229131720411, "lon": -104.5251661822265, "name": "New Mexico Military Institute"}, {"lat": 35.687049109632284, "lon": -105.93713325760802, "name": "Institute of American Indian Arts"}, {"lat": 35.667271979286326, "lon": -105.91278783264619, "name": "St. John's College"}, {"lat": 36.27232094501869, "lon": -105.57795345404796, "name": "SMU-in-Taos at Fort Burgwin"}, {"lat": 35.11012359480804, "lon": -106.58309066680391, "name": "Big Lots"}, {"lat": 32.7673425066739, "lon": -108.27531821566622, "name": "Hudson Plaza"}, {"lat": 35.15401757010102, "lon": -106.64023291042929, "name": null}, {"lat": 36.393046980414404, "lon": -105.2867056892334, "name": "Mountain View Mall"}, {"lat": 35.16642517293902, "lon": -107.8423687952321, "name": "NMSU Grants"}, {"lat": 32.276736270922775, "lon": -106.76685874963515, "name": "Maria Teresa Plaza"}, {"lat": 32.9311937561621, "lon": -105.96482348355086, "name": "Marshalls"}, {"lat": 32.930925804505456, "lon": -105.96471475445252, "name": "Ross"}, {"lat": 35.059831249881775, "lon": -106.19008315611553, "name": null}, {"lat": 35.065408731099026, "lon": -106.19777745467073, "name": null}, {"lat": 35.062680209874664, "lon": -106.19350916206724, "name": null}, {"lat": 32.277912964909994, "lon": -106.7376607164252, "name": "Burrell Center for Osteopathic Medicine"}, {"lat": 35.19852465, "lon": -106.65312019999999, "name": "Sears"}, {"lat": 34.72835758099034, "lon": -106.70554592627096, "name": "UNM Valencia"}, {"lat": 34.806935833989705, "lon": -106.77071326248313, "name": "UNM Valencia WTC"}, {"lat": 35.502410201924704, "lon": -108.72568314583243, "name": "UNM Gallup"}, {"lat": 35.502410201924704, "lon": -108.72568314583243, "name": "UNM Gallup"}, {"lat": 35.0810708199052, "lon": -108.80709894081683, "name": "A:shiwi College & Career Readiness Center"}, {"lat": 35.6884789162831, "lon": -108.14762055428038, "name": null}, {"lat": 32.275813359013895, "lon": -106.75561679630066, "name": "Dona Ana Community College"}, {"lat": 35.071562368281825, "lon": -106.62578553782735, "name": "Trades Campus"}, {"lat": 35.169460921473004, "lon": -103.73664057603406, "name": "Mesalands Community College"}, {"lat": 35.108461562075995, "lon": -106.66214624942491, "name": "Albuquerque Job Corps Center"}]